[
  {
    "name": "NEW DELHI",
    "code": "NDLS",
    "utterances": ["naya delhi", "nai dilli", "nayi delhi", "nai dilli"],
    "name_hi": "नई दिल्ली",
    "latitude": 28.642314,
    "longitude": 77.22000399999999,
    "district": "Central",
    "state": "Delhi",
    "trainCount": "244",
    "address": "Pedestrian Opas, Ratan Lal Market, Railway Colony, Paharganj, New Delhi, Delhi 110006"
  },
  {
    "name": "MGR CHENNAI CTL",
    "code": "MAS",
    "utterances": ["chennai", "medras", "madras", "channie"],
    "name_hi": "मगर चेन्नै कत्ल",
    "latitude": 13.0847613,
    "longitude": 80.27485630000001,
    "district": "Chennai",
    "state": "Tamil Nadu",
    "trainCount": "179",
    "address": "General Hospital Rd, Kannappar Thidal, Periyamet, Chennai, Tamil Nadu 600003"
  },
  {
    "name": "V LAKSHMIBAIJHS",
    "code": "VGLJ",
    "utterances": ["virangna", "jhansi", "lakshmibai", "rani", "virangana"],
    "name_hi": "वीरांगना लक्ष्मीबाई",
    "latitude": 25.444543958881482,
    "longitude": 78.55349688340864,
    "district": "",
    "state": "Uttar Pradesh",
    "trainCount": "",
    "address": "Pedestrian Opas, Rani Laxmi Nagar, Jhansi, Uttar Pradesh 284003"
  },
  {
    "name": "HOWRAH JN",
    "code": "HWH",
    "utterances": ["howda"],
    "name_hi": "होरह जन",
    "latitude": 22.584077999999998,
    "longitude": 88.34099900000001,
    "district": "Howrah",
    "state": "West Bengal",
    "trainCount": "231",
    "address": "station, platform 9, Old Cab Rd, 711101, Howrah Railway Station, Howrah, West Bengal"
  },
  {
    "name": "SECUNDERABAD JN",
    "code": "SC",
    "utterances": ["Secukerabad"],
    "name_hi": "सिकंदराबाद जं",
    "latitude": 17.433146999999998,
    "longitude": 78.50148100000001,
    "district": "Hyderabad",
    "state": "Telangana",
    "trainCount": "203",
    "address": "Platform 4 &amp; 5, Railway Officer Colony, Botiguda, Bhoiguda, Secunderabad, Telangana 500003"
  },
  {
    "name": "PUNE JN",
    "code": "PUNE",
    "utterances": ["puna"],
    "name_hi": "पुणे जं",
    "latitude": 18.529378,
    "longitude": 73.873086,
    "district": "Pune",
    "state": "Maharashtra",
    "trainCount": "234",
    "address": "Sangamvadi, Pune, Maharashtra 411001"
  },
  {
    "name": "KSR BENGALURU",
    "code": "SBC",
    "utterances": ["Bangalore"],
    "name_hi": "कस्र बेंगलुरु",
    "latitude": 12.977595,
    "longitude": 77.56808299999999,
    "district": "Bangalore",
    "state": "Karnataka",
    "trainCount": "127",
    "address": "Bengaluru, Karnataka"
  },
  {
    "name": "AHMEDABAD JN",
    "code": "ADI",
    "utterances": ["adamdabad"],
    "name_hi": "अहमदाबाद जं",
    "latitude": 23.025515,
    "longitude": 72.601516,
    "district": "Ahmadabad",
    "state": "Gujarat",
    "trainCount": "281",
    "address": "2JG2+5HF, Saraspur, Ahmedabad, Gujarat 380002"
  },
  {
    "name": "LOKMANYATILAK T",
    "code": "LTT",
    "utterances": ["lokmayatilak"],
    "name_hi": "लोकमान्यतिलक टी",
    "latitude": 19.070320000000002,
    "longitude": 72.89173899999999,
    "district": "Mumbai Suburban",
    "state": "Maharashtra",
    "trainCount": "153",
    "address": "Lokmanya Tilak Terminus Railway Station, Mumbai, Maharashtra 400089"
  },
  {
    "name": "H NIZAMUDDIN",
    "code": "NZM",
    "utterances": ["Hazrat nizamuddin"],
    "name_hi": "ः निजामुद्दीन",
    "latitude": 28.587329999999998,
    "longitude": 77.254249,
    "district": "South",
    "state": "Delhi",
    "trainCount": "191",
    "address": "Nizamuddin East, New Delhi, Delhi 110013"
  },
  {
    "name": "C SHIVAJI MAH T",
    "code": "CSTM",
    "utterances": ["Shivaji"],
    "name_hi": "स शिवजी मह त",
    "latitude": 18.941002233498335,
    "longitude": 72.83463833978938,
    "district": "",
    "state": "Maharashtra",
    "trainCount": "103",
    "address": "Chhatrapati Shivaji Terminus Area, Fort, Mumbai, Maharashtra 400001"
  },
  {
    "name": "JAIPUR",
    "code": "JP",
    "utterances": [],
    "name_hi": "जयपुर",
    "latitude": 26.920203,
    "longitude": 75.786923,
    "district": "Jaipur",
    "state": "Rajasthan",
    "trainCount": "190",
    "address": "Cold Drinking Water, Hasanpura, Jaipur, Rajasthan 302006"
  },
  {
    "name": "ANAND VIHAR TRM",
    "code": "ANVT",
    "utterances": [],
    "name_hi": "आनंद विहार टर्म",
    "latitude": 28.649069266015722,
    "longitude": 77.31529285279638,
    "district": "",
    "state": "Delhi",
    "trainCount": "102",
    "address": "Footover Bridge, Plot Alpha, Isbt Anand Vihar, Anand Vihar, Delhi, 110092"
  },
  {
    "name": "CHENNAI EGMORE",
    "code": "MS",
    "utterances": [],
    "name_hi": "चेन्नई एगमोर",
    "latitude": 13.077677999999999,
    "longitude": 80.260193,
    "district": "Chennai",
    "state": "Tamil Nadu",
    "trainCount": "107",
    "address": "Egmore, Chennai, Tamil Nadu 600008"
  },
  {
    "name": "DELHI",
    "code": "DAZ",
    "utterances": ["Dili", "dilli"],
    "name_hi": "दिल्ली",
    "latitude": 28.661815999999998,
    "longitude": 77.228356,
    "district": "Central",
    "state": "Delhi NCT",
    "trainCount": "105",
    "address": "Shyama Prasad Mukherji Marg, Delhi NCT"
  },
  {
    "name": "SURAT",
    "code": "ST",
    "utterances": [],
    "name_hi": "सूरत",
    "latitude": 21.15920015,
    "longitude": 72.82229625000001,
    "district": "Surat",
    "state": "Gujarat",
    "trainCount": "313",
    "address": "5R5C+MWF, Govalak, Pandesara, Udhana, Surat, Gujarat 394220"
  },
  {
    "name": "BANDRA TERMINUS",
    "code": "BDTS",
    "utterances": [],
    "name_hi": "बांद्रा टर्मिनस",
    "latitude": 19.061911,
    "longitude": 72.840535,
    "district": "Mumbai Suburban",
    "state": "Maharashtra",
    "trainCount": "111",
    "address": "Mumbai, Maharashtra"
  },
  {
    "name": "VIJAYAWADA JN",
    "code": "BZA",
    "utterances": [],
    "name_hi": "विजयवाड़ा जं",
    "latitude": 16.518262,
    "longitude": 80.61864800000001,
    "district": "Krishna",
    "state": "Andhra Pradesh",
    "trainCount": "350",
    "address": "Hanumanpet, Vijayawada, Andhra Pradesh 520001"
  },
  {
    "name": "VISAKHAPATNAM",
    "code": "VSKP",
    "utterances": ["vizagapatam"],
    "name_hi": "विशाखापट्नम",
    "latitude": 17.72159,
    "longitude": 83.289514,
    "district": "Visakhapatnam",
    "state": "Andhra Pradesh",
    "trainCount": "201",
    "address": "P7CQ+RP9, Waltair Station Approach Rd, Railway Quarters, Railway New Colony, Visakhapatnam, Andhra Pradesh 530004"
  },
  {
    "name": "YESVANTPUR JN",
    "code": "YPR",
    "utterances": [],
    "name_hi": "एसवंतपुर जन",
    "latitude": 13.022839000000001,
    "longitude": 77.55117399999999,
    "district": "Bangalore",
    "state": "Karnataka",
    "trainCount": "162",
    "address": "Yeshwanthpur - Tumkur Railway Station Rd, Yeshwanthpur Industrial Area, Phase 1, Yeswanthpur, Bengaluru, Karnataka 560022"
  },
  {
    "name": "PATNA JN",
    "code": "PNBE",
    "utterances": [],
    "name_hi": "पटना जं",
    "latitude": 25.60256,
    "longitude": 85.136824,
    "district": "Patna",
    "state": "Bihar",
    "trainCount": "179",
    "address": "NO.34, New Dak Bunglow Rd, Mithapur Farm Area, Mithapur, Patna, Bihar 800001"
  },
  {
    "name": "MUMBAI CENTRAL",
    "code": "BCT",
    "utterances": ["Bombay", "Mumbai"],
    "name_hi": "मुंबई सेंट्रल",
    "latitude": 18.969879041061084,
    "longitude": 72.81926508143442,
    "district": "",
    "state": "Maharashtra",
    "trainCount": "43",
    "address": "Nathani Heights Commercial,B'Wing,Shop no 57 Ground Floor, Mumbai Central, Mumbai, Maharashtra 400008"
  },
  {
    "name": "BHOPAL  JN",
    "code": "BPL",
    "utterances": [],
    "name_hi": "भोपाल  जं",
    "latitude": 23.266884384300003,
    "longitude": 77.4131428577,
    "district": "Bhopal",
    "state": "Madhya Pradesh",
    "trainCount": "257",
    "address": "Navbahar Colony, Bhopal, Madhya Pradesh 462001"
  },
  {
    "name": "NAGPUR",
    "code": "NGP",
    "utterances": [],
    "name_hi": "नागपुर",
    "latitude": 21.153567,
    "longitude": 79.089004,
    "district": "Nagpur",
    "state": "Maharashtra",
    "trainCount": "253",
    "address": "533Q+FH2, Mohan Nagar, Nagpur, Maharashtra 440001"
  },
  {
    "name": "LUCKNOW NR",
    "code": "LKO",
    "utterances": [],
    "name_hi": "लखनऊ न्र",
    "latitude": 26.830675,
    "longitude": 80.925291,
    "district": "Lucknow",
    "state": "Uttar Pradesh",
    "trainCount": "255",
    "address": "Railway Colony, Charbagh, Lucknow, Uttar Pradesh 226001"
  },
  {
    "name": "BORIVALI",
    "code": "BVI",
    "utterances": [],
    "name_hi": "बोरीवली",
    "latitude": 19.228739,
    "longitude": 72.85641199999999,
    "district": "Mumbai Suburban",
    "state": "Maharashtra",
    "trainCount": "150",
    "address": "Mumbai, Maharashtra"
  },
  {
    "name": "VARANASI JN",
    "code": "BSB",
    "utterances": ["banaras"],
    "name_hi": "वाराणसी जं",
    "latitude": 25.327281,
    "longitude": 82.986468,
    "district": "Varanasi",
    "state": "Uttar Pradesh",
    "trainCount": "221",
    "address": "Railwayganj Colony, Varanasi, Uttar Pradesh 221002"
  },
  {
    "name": "KALYAN JN",
    "code": "KYN",
    "utterances": [],
    "name_hi": "कल्याण जन",
    "latitude": 19.234716000000002,
    "longitude": 73.12974,
    "district": "Thane",
    "state": "Maharashtra",
    "trainCount": "263",
    "address": "Kalyan Building, Pathe Bapurao Marg, Grant Road East, Bharat Nagar, Grant Road, Mumbai, Maharashtra 400007"
  },
  {
    "name": "KANPUR CENTRAL",
    "code": "CNB",
    "utterances": [],
    "name_hi": "कानपूर सेंट्रल",
    "latitude": 26.454240000000002,
    "longitude": 80.350966,
    "district": "Kanpur Nagar",
    "state": "Uttar Pradesh",
    "trainCount": "343",
    "address": "F932+M9Q, Kanpur Central Railyway Station Flyover, Moti Mohal, Mirpur, Kanpur, Uttar Pradesh"
  },
  {
    "name": "BHUBANESWAR",
    "code": "BBS",
    "utterances": [],
    "name_hi": "भुबनेश्वर",
    "latitude": 20.265388,
    "longitude": 85.84259499999999,
    "district": "Khordha",
    "state": "Odisha",
    "trainCount": "237",
    "address": "Master Canteen Chowk, Ashok Nagar, Bhubaneswar, Odisha 751009"
  },
  {
    "name": "COIMBATORE JN",
    "code": "CBE",
    "utterances": [],
    "name_hi": "कोइम्बटोरे जन",
    "latitude": 10.997639,
    "longitude": 76.966298,
    "district": "Coimbatore",
    "state": "Tamil Nadu",
    "trainCount": "148",
    "address": "50, Dr Nanjappa Road, 1st Floor, Raja Street, Coimbatore Junction, Dr Nanjappa Road, Coimbatore, Tamil Nadu 641018"
  },
  {
    "name": "SEALDAH",
    "code": "SDAH",
    "utterances": [],
    "name_hi": "स्यालदाह",
    "latitude": 22.566758,
    "longitude": 88.374713,
    "district": "Howrah",
    "state": "West Bengal",
    "trainCount": "54",
    "address": "Sealdah Train Yard, Sealdah, Raja Bazar, Kolkata, West Bengal 700014"
  },
  {
    "name": "TRIVANDRUM CNTL",
    "code": "TVC",
    "utterances": [],
    "name_hi": "त्रिवेंद्रम कंटल",
    "latitude": 8.486679,
    "longitude": 76.95120999999999,
    "district": "Thiruvananthapuram",
    "state": "Kerala",
    "trainCount": "87",
    "address": "Chalai Bazaar, Chalai, Thiruvananthapuram, Kerala 695001"
  },
  {
    "name": "VADODARA JN",
    "code": "BRC",
    "utterances": [],
    "name_hi": "वडोदरा जं",
    "latitude": 22.310756,
    "longitude": 73.181065,
    "district": "Vadodara",
    "state": "Gujarat",
    "trainCount": "354",
    "address": "Vadodara Railway Station, Maharaja Sayajirao University, Sayajiganj, Vadodara, Gujarat 390005"
  },
  {
    "name": "GORAKHPUR JN",
    "code": "GKP",
    "utterances": [],
    "name_hi": "गोरखपुर जं",
    "latitude": 26.759311,
    "longitude": 83.381499,
    "district": "Gorakhpur",
    "state": "Uttar Pradesh",
    "trainCount": "177",
    "address": "Bilandpur, Gorakhpur, Uttar Pradesh 273012"
  },
  {
    "name": "JAMMU TAWI",
    "code": "JAT",
    "utterances": ["jammu"],
    "name_hi": "जम्मू तवी",
    "latitude": 32.706975,
    "longitude": 74.880117,
    "district": "Jammu",
    "state": "Jammu and Kashmir",
    "trainCount": "107",
    "address": "Jammu Cantt, Jammu and Kashmir"
  },
  {
    "name": "JABALPUR",
    "code": "JBP",
    "utterances": [],
    "name_hi": "जबलपुर",
    "latitude": 23.164636,
    "longitude": 79.950919,
    "district": "Jabalpur",
    "state": "Madhya Pradesh",
    "trainCount": "191",
    "address": "Jabalpur, Madhya Pradesh"
  },
  {
    "name": "INDORE JN BG",
    "code": "INDB",
    "utterances": ["Indore"],
    "name_hi": "इंदौर जं बग",
    "latitude": 22.71757,
    "longitude": 75.868429,
    "district": "Indore",
    "state": "Madhya Pradesh",
    "trainCount": "84",
    "address": "Indore, Madhya Pradesh"
  },
  {
    "name": "THANE",
    "code": "TNA",
    "utterances": [],
    "name_hi": "ठाणे",
    "latitude": 19.185757000000002,
    "longitude": 72.97541700000001,
    "district": "Thane",
    "state": "Maharashtra",
    "trainCount": "171",
    "address": "Kopri Railway Bridge, Shivaji Nagar, Thane East, Thane, Maharashtra 400603"
  },
  {
    "name": "PRAYAGRAJ JN.",
    "code": "PRYJ",
    "utterances": [],
    "name_hi": "प्रयागराज जन.",
    "latitude": 25.451013816413738,
    "longitude": 81.82636135958182,
    "district": "",
    "state": "Uttar Pradesh",
    "trainCount": "0",
    "address": "Civil Lines, Prayagraj, Uttar Pradesh 211001"
  },
  {
    "name": "LUCKNOW NE",
    "code": "LJN",
    "utterances": [],
    "name_hi": "लखनऊ ने",
    "latitude": 26.831967000000002,
    "longitude": 80.91858699999999,
    "district": "Lucknow",
    "state": "Uttar Pradesh",
    "trainCount": "58",
    "address": "Blunt Square, Cash and Pay Colony, Charbagh, Lucknow, Uttar Pradesh 226004"
  },
  {
    "name": "KOTA JN",
    "code": "KOTA",
    "utterances": [],
    "name_hi": "कोटा जं",
    "latitude": 25.223553,
    "longitude": 75.8805,
    "district": "Kota",
    "state": "Rajasthan",
    "trainCount": "183",
    "address": "New Railway Colony, Railway Station Area, Kota, Rajasthan 324002"
  },
  {
    "name": "JODHPUR JN",
    "code": "JU",
    "utterances": [],
    "name_hi": "जोधपुर जं",
    "latitude": 26.283765,
    "longitude": 73.02319,
    "district": "Jodhpur",
    "state": "Rajasthan",
    "trainCount": "93",
    "address": "Ratanada, Jodhpur, Rajasthan 342001"
  },
  {
    "name": "DELHI S ROHILLA",
    "code": "DEE",
    "utterances": [],
    "name_hi": "दिल्ली स रोहिल्ला",
    "latitude": 28.662992,
    "longitude": 77.187106,
    "district": "North West",
    "state": "Delhi NCT",
    "trainCount": "68",
    "address": "New Rohtak road, Delhi NCT"
  },
  {
    "name": "TAMBARAM",
    "code": "TBM",
    "utterances": [],
    "name_hi": "ताम्बरम",
    "latitude": 12.926035689399999,
    "longitude": 80.1191573807,
    "district": "Chengalpattu",
    "state": "Tamil Nadu",
    "trainCount": "91",
    "address": "W4G9+CJ7, Tambaram Railway Bridge, Railway Colony, East Tambaram, Tambaram, Chennai, Tamil Nadu 600059"
  },
  {
    "name": "TIRUPATI",
    "code": "TPTY",
    "utterances": [],
    "name_hi": "तिरुपति",
    "latitude": 13.62763,
    "longitude": 79.418968,
    "district": "Chittoor",
    "state": "Andhra Pradesh",
    "trainCount": "122",
    "address": "Royal Nagar, Tirupati, Andhra Pradesh 517501"
  },
  {
    "name": "GWALIOR",
    "code": "GWL",
    "utterances": [],
    "name_hi": "ग्वालियर",
    "latitude": 26.216483,
    "longitude": 78.18229199999999,
    "district": "Gwalior",
    "state": "Madhya Pradesh",
    "trainCount": "167",
    "address": "Railway Colony, Gwalior, Madhya Pradesh 474002"
  },
  {
    "name": "RAIPUR JN",
    "code": "R",
    "utterances": [],
    "name_hi": "रायपुर जं",
    "latitude": 21.256462000000003,
    "longitude": 81.629328,
    "district": "Raipur",
    "state": "Chhattisgarh",
    "trainCount": "150",
    "address": "7J4H+JJ9, Gudhiyari, Chhattisgarh 492009"
  },
  {
    "name": "DADAR",
    "code": "DDR",
    "utterances": [],
    "name_hi": "दादर",
    "latitude": 19.017179,
    "longitude": 72.842972,
    "district": "Mumbai Suburban",
    "state": "Maharashtra",
    "trainCount": "109",
    "address": "2R8V+R67, Railway Bridge, Priyadarshini Society, Dadar, Mumbai, Maharashtra 400014"
  },
  {
    "name": "CHANDIGARH",
    "code": "CDG",
    "utterances": [],
    "name_hi": "चंडीगढ़",
    "latitude": 30.7019773,
    "longitude": 76.82208,
    "district": "Chandigarh",
    "state": "Chandigarh",
    "trainCount": "66",
    "address": "Darua, Chandigarh"
  },
  {
    "name": "ERNAKULAM JN",
    "code": "ERS",
    "utterances": [],
    "name_hi": "एर्णाकुलम जं",
    "latitude": 9.969541999999999,
    "longitude": 76.290672,
    "district": "Ernakulam",
    "state": "Kerala",
    "trainCount": "107",
    "address": "Ernakulam South Parking Lot, Kadavanthara, Ernakulam South, Ernakulam, Kerala 682011"
  },
  {
    "name": "GUWAHATI",
    "code": "GHY",
    "utterances": ["gauhati", "gawhati"],
    "name_hi": "गुवाहाटी",
    "latitude": 26.182635,
    "longitude": 91.751851,
    "district": "Kamrup Metropolitan",
    "state": "Assam",
    "trainCount": "106",
    "address": "Guwahati, Assam 781001"
  },
  {
    "name": "TATANAGAR JN",
    "code": "TATA",
    "utterances": [],
    "name_hi": "टाटानगर जन",
    "latitude": 22.768954,
    "longitude": 86.20056000000001,
    "district": "Purbi Singhbhum",
    "state": "Jharkhand",
    "trainCount": "104",
    "address": "Khasmahal, Jugsalai, Jamshedpur, Jharkhand 831007"
  },
  {
    "name": "KACHEGUDA",
    "code": "KCG",
    "utterances": [],
    "name_hi": "काचीगुडा",
    "latitude": 17.389561,
    "longitude": 78.499756,
    "district": "Hyderabad",
    "state": "Telangana",
    "trainCount": "63",
    "address": "Nimboliadda, Kachiguda, Hyderabad, Telangana 500027"
  },
  {
    "name": "KOZHIKKODE",
    "code": "CLT",
    "utterances": [],
    "name_hi": "कोजहिककोड़े",
    "latitude": 11.246234,
    "longitude": 75.780407,
    "district": "Kozhikode",
    "state": "Kerala",
    "trainCount": "107",
    "address": "Calicut, Kerala"
  },
  {
    "name": "MADURAI JN",
    "code": "MDU",
    "utterances": [],
    "name_hi": "मदुरै जं",
    "latitude": 9.919907,
    "longitude": 78.11031399999999,
    "district": "Madurai",
    "state": "Tamil Nadu",
    "trainCount": "93",
    "address": "Railway Junction Road, Southern Railway Colony, Tamil Nadu 625016"
  },
  {
    "name": "TIRUCHCHIRAPALI",
    "code": "TPJ",
    "utterances": [],
    "name_hi": "तिरुच्चिरापली",
    "latitude": 10.794067,
    "longitude": 78.685355,
    "district": "Tiruchirappalli",
    "state": "Tamil Nadu",
    "trainCount": "124",
    "address": "Bharathiyar Salai, Sangillyandapuram, Tiruchirappalli, Tamil Nadu 620001"
  },
  {
    "name": "RANCHI",
    "code": "RNC",
    "utterances": [],
    "name_hi": "रांची",
    "latitude": 23.348811,
    "longitude": 85.33352,
    "district": "Ranchi",
    "state": "Jharkhand",
    "trainCount": "72",
    "address": "Ranchi, Jharkhand 834001"
  },
  {
    "name": "KRISHNARAJAPURM",
    "code": "KJM",
    "utterances": [],
    "name_hi": "कृष्णराजपुरम",
    "latitude": 13.000534,
    "longitude": 77.674016,
    "district": "Bangalore",
    "state": "Karnataka",
    "trainCount": "98",
    "address": "Jyothi Puram, Dooravani Nagar, Bengaluru, Karnataka 560016"
  },
  {
    "name": "GHAZIABAD",
    "code": "GZB",
    "utterances": [],
    "name_hi": "ग़ज़िआबाद",
    "latitude": 28.649702,
    "longitude": 77.431099,
    "district": "Ghaziabad",
    "state": "Uttar Pradesh",
    "trainCount": "176",
    "address": "Bhur Bharat Nagar, Railway Colony, Madhopura, Ghaziabad, Uttar Pradesh 201009"
  },
  {
    "name": "AMRITSAR JN",
    "code": "ASR",
    "utterances": [],
    "name_hi": "अमृतसर जं",
    "latitude": 31.633176085967317,
    "longitude": 74.86686483937625,
    "district": "",
    "state": "Punjab",
    "trainCount": "100",
    "address": "Guru Arjun Nagar, Amritsar, Punjab 143001"
  },
  {
    "name": "LUDHIANA JN",
    "code": "LDH",
    "utterances": [],
    "name_hi": "लुधिअना जन",
    "latitude": 30.912367,
    "longitude": 75.84787299999999,
    "district": "Ludhiana",
    "state": "Punjab",
    "trainCount": "205",
    "address": "Gandhi Nagar, Civil Lines, Ludhiana, Punjab 141001"
  },
  {
    "name": "AJMER JN",
    "code": "AII",
    "utterances": [],
    "name_hi": "अजमेर जं",
    "latitude": 26.456612,
    "longitude": 74.63746400000001,
    "district": "Ajmer",
    "state": "Rajasthan",
    "trainCount": "139",
    "address": "Ajmer, Rajasthan"
  },
  {
    "name": "THRISUR",
    "code": "TCR",
    "utterances": [],
    "name_hi": "थ्रिसुर",
    "latitude": 10.514790000000001,
    "longitude": 76.207919,
    "district": "Thrissur",
    "state": "Kerala",
    "trainCount": "165",
    "address": "R.S Road, Veliyannur, Thrissur, Kerala 680021"
  },
  {
    "name": "KOLKATA",
    "code": "CP",
    "utterances": [],
    "name_hi": "कोलकाता",
    "latitude": 22.601174999999998,
    "longitude": 88.385179,
    "district": "Kolkata",
    "state": "West Bengal",
    "trainCount": "72",
    "address": "Belgachia, Kolkata, West Bengal"
  },
  {
    "name": "SOLAPUR JN",
    "code": "SUR",
    "utterances": [],
    "name_hi": "सोलापुर जं",
    "latitude": 17.664496,
    "longitude": 75.893401,
    "district": "Solapur",
    "state": "Maharashtra",
    "trainCount": "104",
    "address": "Sidheshwar Peth, Solapur, Maharashtra 413002"
  },
  {
    "name": "AGRA CANTT",
    "code": "AGC",
    "utterances": [],
    "name_hi": "आगरा कैंट",
    "latitude": 27.157992,
    "longitude": 77.990153,
    "district": "Agra",
    "state": "Uttar Pradesh",
    "trainCount": "177",
    "address": "Agra Cantt, Idgah Colony, Agra, Uttar Pradesh 282001"
  },
  {
    "name": "NEW JALPAIGURI",
    "code": "NJP",
    "utterances": [],
    "name_hi": "न्यू जलपाईगुड़ी",
    "latitude": 26.683025,
    "longitude": 88.443391,
    "district": "Jalpaiguri",
    "state": "West Bengal",
    "trainCount": "147",
    "address": "Platform No. 1 NJP Railway Station, New, West Bengal 734007"
  },
  {
    "name": "MATHURA JN",
    "code": "MTJ",
    "utterances": [],
    "name_hi": "मथुरा जं",
    "latitude": 27.480145,
    "longitude": 77.67311699999999,
    "district": "Mathura",
    "state": "Uttar Pradesh",
    "trainCount": "189",
    "address": "FMJF+HMG Station Parking, Mayur Vihar, Mathura, Uttar Pradesh 281001"
  },
  {
    "name": "AMBALA CANT JN",
    "code": "UMB",
    "utterances": [],
    "name_hi": "अंबाला कैंट जं",
    "latitude": 30.338918,
    "longitude": 76.826966,
    "district": "Ambala",
    "state": "Haryana",
    "trainCount": "230",
    "address": "Ambala Cantt, Haryana 134003"
  },
  {
    "name": "MYSURU JN",
    "code": "MYS",
    "utterances": ["mysore", "mysori", "mysuri"],
    "name_hi": "मैसुरु जन",
    "latitude": 12.318946,
    "longitude": 76.646013,
    "district": "Mysuru",
    "state": "Karnataka",
    "trainCount": "66",
    "address": "JLB Road Mysore, Karnataka"
  },
  {
    "name": "HYDERABAD DECAN",
    "code": "HYB",
    "utterances": [],
    "name_hi": "हैदराबाद डाँ",
    "latitude": 17.393362999999997,
    "longitude": 78.467377,
    "district": "Hyderabad",
    "state": "Telangana",
    "trainCount": "48",
    "address": "Hyderabad, Andhra Pradesh"
  },
  {
    "name": "NASHIK ROAD",
    "code": "NK",
    "utterances": [],
    "name_hi": "नाशिक रोड",
    "latitude": 19.947627,
    "longitude": 73.841897,
    "district": "Nashik",
    "state": "Maharashtra",
    "trainCount": "135",
    "address": "Ticket counter nasik road railway station, P&amp;T Colony, Rajwada Nagar, Deolali Gaon, Nashik, Maharashtra 422214"
  },
  {
    "name": "RANI KAMALAPATI",
    "code": "RKMP",
    "utterances": ["RANI KAMLAPATI", "HABIBGANJ"],
    "name_hi": "रानी कमलापति",
    "district": "Bhopal",
    "state": "Madhya Pradesh",
    "trainCount": "110",
    "latitude": 23.221979,
    "longitude": 77.43942899999999,
    "address": "6CCQ+QP8, Habibganj Pedestrian Opas, Zone-II, Habib Ganj, Bhopal, Madhya Pradesh 462023"
  },
  {
    "name": "HUBBALLI JN",
    "code": "UBL",
    "utterances": ["hubli"],
    "name_hi": "हुब्बल्ली जन",
    "latitude": 15.350302000000001,
    "longitude": 75.148104,
    "district": "Dharwad",
    "state": "Karnataka",
    "trainCount": "91",
    "address": "Hubli, Karnataka"
  },
  {
    "name": "RAJAHMUNDRY",
    "code": "RJY",
    "utterances": [],
    "name_hi": "राजहमुन्द्री",
    "latitude": 16.984159000000002,
    "longitude": 81.783901,
    "district": "East Godavari",
    "state": "Andhra Pradesh",
    "trainCount": "210",
    "address": "Navabharat Nagar, Rajamahendravaram, Andhra Pradesh 533101"
  },
  {
    "name": "ERODE JN",
    "code": "ED",
    "utterances": [],
    "name_hi": "इरोड जं",
    "latitude": 11.327682,
    "longitude": 77.72593400000001,
    "district": "Erode",
    "state": "Tamil Nadu",
    "trainCount": "169",
    "address": "Platform Number 2, Erode, Tamil Nadu 638002"
  },
  {
    "name": "BILASPUR JN",
    "code": "BSP",
    "utterances": [],
    "name_hi": "बिलासपुर जं",
    "latitude": 22.057473,
    "longitude": 82.167585,
    "district": "Bilaspur",
    "state": "Chhattisgarh",
    "trainCount": "133",
    "address": "Railway Colony, Bilaspur, Chhattisgarh 495004"
  },
  {
    "name": "KATPADI JN",
    "code": "KPD",
    "utterances": [],
    "name_hi": "कट्पडी जन",
    "latitude": 12.972734,
    "longitude": 79.13534100000001,
    "district": "Vellore",
    "state": "Tamil Nadu",
    "trainCount": "217",
    "address": "Vellore, Tamil Nadu 632007"
  },
  {
    "name": "SALEM JN",
    "code": "SA",
    "utterances": [],
    "name_hi": "सालेम जन",
    "latitude": 11.671726000000001,
    "longitude": 78.113415,
    "district": "Salem",
    "state": "Tamil Nadu",
    "trainCount": "170",
    "address": "31, Post Office Rd, Azad Nagar, Suramangalam, Salem, Tamil Nadu 636005"
  },
  {
    "name": "MADGAON",
    "code": "MAO",
    "utterances": [],
    "name_hi": "मडगाओं",
    "latitude": 15.267911000000002,
    "longitude": 73.97072399999999,
    "district": "South Goa",
    "state": "Goa",
    "trainCount": "109",
    "address": "Madgaon. Ph:- 0832-2712790., Goa"
  },
  {
    "name": "MUZAFFARPUR JN",
    "code": "MFP",
    "utterances": [],
    "name_hi": "मुजफ्फरपुर जं",
    "latitude": 26.122311,
    "longitude": 85.378006,
    "district": "Muzaffarpur",
    "state": "Bihar",
    "trainCount": "126",
    "address": "Motijheel, RF COMPLEX PURANI DHARMSHALA ROAD, near Railway Station, Muzaffarpur, Bihar 842001"
  },
  {
    "name": "AURANGABAD",
    "code": "AWB",
    "utterances": [],
    "name_hi": "औरंगाबाद",
    "latitude": 19.859276,
    "longitude": 75.31064599999999,
    "district": "Aurangabad",
    "state": "Maharashtra",
    "trainCount": "52",
    "address": "Aurangabad, Maharashtra"
  },
  {
    "name": "GUNTUR JN",
    "code": "GNT",
    "utterances": [],
    "name_hi": "गुंटूर जन",
    "latitude": 16.300784,
    "longitude": 80.44197299999999,
    "district": "Guntur",
    "state": "Andhra Pradesh",
    "trainCount": "79",
    "address": "4th Platform, Railway Station, Sambasiva Pet, Guntur, Andhra Pradesh"
  },
  {
    "name": "RAJENDRANAGAR T",
    "code": "RJPB",
    "utterances": [],
    "name_hi": "राजेन्द्रनगर टी",
    "latitude": 25.603351,
    "longitude": 85.162449,
    "district": "Patna",
    "state": "Bihar",
    "trainCount": "67",
    "address": "Rajendra Nagar, Patna, Bihar 800016"
  },
  {
    "name": "H SAHIB NANDED",
    "code": "NED",
    "utterances": [],
    "name_hi": "ः साहिब नांदेड़",
    "latitude": 19.160522,
    "longitude": 77.31047799999999,
    "district": "Nanded",
    "state": "Maharashtra",
    "trainCount": "88",
    "address": "Nanded, Maharashtra"
  },
  {
    "name": "HARIDWAR JN",
    "code": "HW",
    "utterances": [],
    "name_hi": "हरिद्वार जं",
    "latitude": 29.947787,
    "longitude": 78.15489899999999,
    "district": "Haridwar",
    "state": "Uttarakhand",
    "trainCount": "72",
    "address": "Haridwar, Uttarakhand"
  },
  {
    "name": "BANARAS",
    "code": "BSBS",
    "utterances": ["MANDUADIH", "BANARAS"],
    "name_hi": "बनारस",
    "district": "Varanasi",
    "state": "Uttar Pradesh",
    "trainCount": "32",
    "latitude": 25.300001,
    "longitude": 82.972079,
    "address": "Varanasi, Uttar Pradesh"
  },
  {
    "name": "ERNAKULAM TOWN",
    "code": "ERN",
    "utterances": [],
    "name_hi": "एर्नाकुलम टाउन",
    "latitude": 9.991582000000001,
    "longitude": 76.2861,
    "district": "Ernakulam",
    "state": "Kerala",
    "trainCount": "84",
    "address": "Xavier Arakkal Rd, Ernakulam North, Kacheripady, Ernakulam, Kerala 682018"
  },
  {
    "name": "PANVEL",
    "code": "PNVL",
    "utterances": [],
    "name_hi": "पनवेल",
    "latitude": 18.990918999999998,
    "longitude": 73.121756,
    "district": "Raigad",
    "state": "Maharashtra",
    "trainCount": "147",
    "address": "Panvel, Maharashtra"
  },
  {
    "name": "VAPI",
    "code": "VAPI",
    "utterances": [],
    "name_hi": "वापी",
    "latitude": 20.374337999999998,
    "longitude": 72.90912700000001,
    "district": "Valsad",
    "state": "Gujarat",
    "trainCount": "171",
    "address": "Valsad, Gujarat"
  },
  {
    "name": "DD UPADHYAYA JN",
    "code": "DDU",
    "utterances": [],
    "name_hi": "दद उपाध्याय जन",
    "latitude": 25.280669815278,
    "longitude": 83.12069395272243,
    "district": "",
    "state": "Uttar Pradesh",
    "trainCount": "278",
    "address": "232101 Pandit Dindayal Upadhyaya Marg Pandit Dindayal Upadhyay Nagar Uttaresh, 276001"
  },
  {
    "name": "BIKANER JN",
    "code": "BKN",
    "utterances": [],
    "name_hi": "बीकानेर जं",
    "latitude": 28.014139,
    "longitude": 73.31659800000001,
    "district": "Bikaner",
    "state": "Rajasthan",
    "trainCount": "60",
    "address": "2878+VCP, Bikaner, Rajasthan 334001"
  },
  {
    "name": "UJJAIN JN",
    "code": "UJN",
    "utterances": [],
    "name_hi": "उज्जैन जं",
    "latitude": 23.178154,
    "longitude": 75.781403,
    "district": "Ujjain",
    "state": "Madhya Pradesh",
    "trainCount": "122",
    "address": "Dewas gate bus stand shop No 2, near prakash book Dipo, Ujjain, Madhya Pradesh 456010"
  },
  {
    "name": "PURI",
    "code": "MGLP",
    "utterances": [],
    "name_hi": "पूरी",
    "latitude": 19.811459000000003,
    "longitude": 85.839992,
    "district": "Puri",
    "state": "Odisha",
    "trainCount": "86",
    "address": "Ramachandi, Puri, Odisha 752002"
  },
  {
    "name": "UDAIPUR CITY",
    "code": "UDZ",
    "utterances": [],
    "name_hi": "उदयपुर सिटी",
    "latitude": 24.566862,
    "longitude": 73.699632,
    "district": "Udaipur",
    "state": "Rajasthan",
    "trainCount": "34",
    "address": "Udaipur, Rajasthan"
  },
  {
    "name": "BAREILLY",
    "code": "BC",
    "utterances": [],
    "name_hi": "बरैली",
    "latitude": 28.337154299999998,
    "longitude": 79.4108444,
    "district": "Bareilly",
    "state": "Uttar Pradesh",
    "trainCount": "171",
    "address": "Station Rd, Civil Lines, Bareilly, Uttar Pradesh 243001"
  },
  {
    "name": "KHARAGPUR JN",
    "code": "KGP",
    "utterances": [],
    "name_hi": "खड़गपुर जं",
    "latitude": 22.341431999999998,
    "longitude": 87.32845599999999,
    "district": "Paschim Medinipur",
    "state": "West Bengal",
    "trainCount": "201",
    "address": "Kharagpur, West Bengal 721301"
  },
  {
    "name": "KANNUR",
    "code": "CAN",
    "utterances": [],
    "name_hi": "कन्नूर",
    "latitude": 11.870694199999999,
    "longitude": 75.3683267,
    "district": "Kannur",
    "state": "Kerala",
    "trainCount": "103",
    "address": "Kannur, Kerala"
  },
  {
    "name": "TIRUNELVELI",
    "code": "TEN",
    "utterances": [],
    "name_hi": "तिरुनेलवेली",
    "latitude": 8.73636,
    "longitude": 77.707979,
    "district": "Tirunelveli",
    "state": "Tamil Nadu",
    "trainCount": "62",
    "address": "Tirunelveli, Tamil Nadu"
  }
]
